{
    "coffeeshops" : [
        {
            "id": "1",
            "title": "L.Z. Dessert 無框架甜點",
            "city": "台中市西區",
            "address": "台中市西區中興街183號",
            "time": "12:30-20:30",
            "tel": "04-23026865",
            "evaluate": "10",
            "pricelevel": "400起",
            "minimum order": "一杯飲品或一杯義式冰淇淋",
            "longitude": "120.6606413",
            "latitude": "24.150176",
            "link":"https://www.instagram.com/explore/locations/2019076175010921/lz-dessart/",
            "image1": "imgs/1-1.jpg",
            "image2": "imgs/1-2.jpg"
        },
        {
            "id": "2",
            "title": "All In Coffee",
            "city": "彰化縣員林市",
            "address": "彰化縣員林市和平東街60-1號",
            "time": "9:00-18:00",
            "tel": "",
            "evaluate": "10",
            "pricelevel": "200起",
            "minimum order": "一杯飲品",
            "longitude": "120.5734127",
            "latitude": "23.962603",
            "link":"https://www.instagram.com/explore/locations/1032083150/all-in-coffee/",
            "image1": "imgs/2-1.jpg",
            "image2": "imgs/2-2.jpg"

        },
        {
            "id": "3",
            "title": "萊姆16手作甜點",
            "city": "台中市北區",
            "address": "台中市北區天津一街42號",
            "time": "13:30-19:00 (週四公休)",
            "tel": "04-22982509",
            "evaluate": "10",
            "pricelevel": "200起",
            "minimum order": "每人150元",
            "longitude": "120.6732834",
            "latitude": "24.1706022",
            "link":"https://www.instagram.com/explore/locations/525664150944736/16-lime16-patisserie/",
            "image1": "imgs/3-1.jpg"
        },
        {
            "id": "4",
            "title": "Subi coffee&bakery",
            "city": "彰化縣員林市",
            "address": "彰化縣員林市中山路二段131巷28號",
            "time": "12:00-18:30 (週三公休)",
            "tel": "04-8372312",
            "evaluate": "10",
            "pricelevel": "200起",
            "minimum order": "一杯飲品",
            "longitude": "120.5676459",
            "latitude": "23.9637576",
            "link":"https://www.instagram.com/explore/locations/146574429397989/subi-coffeebakery/",
            "image1": "imgs/4-1.jpg"
        },
        {
            "id": "5",
            "title": "窩巷 ᴴᴵᴰᴰᴱᴺ ᴸᴬᴺᴱ",
            "city": "台中市西區",
            "address": "台中市西區柳川東路二段56號",
            "time": "12:30-18:00 (週四公休)",
            "tel": "04-23770008",
            "evaluate": "9",
            "pricelevel": "200起",
            "minimum order": "無提供內用",
            "longitude": "120.6627157",
            "latitude": "24.1335479",
            "link":"https://www.instagram.com/explore/locations/426805117/",
            "image1": "imgs/5-1.jpg"
        },
        {
            "id": "6",
            "title": "Cuppa VV Cafe",
            "city": "台中市西區",
            "address": "台中市西區博館三街103號",
            "time": "9:00-21:00",
            "tel": "04-23237879",
            "evaluate": "9",
            "pricelevel": "200起",
            "minimum order": "一杯飲品",
            "longitude": "120.6598002",
            "latitude": "24.1571368",
            "link":"https://www.instagram.com/explore/locations/107431340724748/cuppa-vv-cafe/",
            "image1": "imgs/6-1.jpg"
        },
        {
            "id": "7",
            "title": "發酵",
            "city": "台中市西區",
            "address": "台中市西區美村路一段102巷1號",
            "time": "11:00-19:00",
            "tel": "04-23280065",
            "evaluate": "8",
            "pricelevel": "200起",
            "minimum order": "一分鹹食主餐",
            "longitude": "120.6591274",
            "latitude": "24.1519459",
            "link":"https://www.instagram.com/explore/locations/1030821390288560/fermento/",
            "image1": "imgs/7-1.jpg"
        },
        {
            "id": "8",
            "title": "8豆咖琲",
            "city": "台中市西區",
            "address": "台中市西區五權西六街93號",
            "time": "9:00-18:00",
            "tel": "04-23768393",
            "evaluate": "8",
            "pricelevel": "200起",
            "minimum order": "每人100元",
            "longitude": "120.6567167",
            "latitude": "24.1372235",
            "link":"https://www.instagram.com/explore/locations/1014130071/8/",
            "image1": "imgs/8-1.jpg",
            "image2": "imgs/8-2.jpg",
            "image3": "imgs/8-3.jpg"
        },
        {
            "id": "9",
            "title": "初咖啡",
            "city": "台中市沙鹿區",
            "address": "台中市沙鹿區四平街43-1號",
            "time": "9:00-18:00",
            "tel": "04-23768393",
            "evaluate": "8",
            "pricelevel": "200起",
            "minimum order": "一杯飲品",
            "longitude": "120.5578238",
            "latitude": "24.2337386",
            "link":"https://www.instagram.com/explore/locations/103992634896362/the-origin-coffee-roaster-in-shalu/",
            "image1": "imgs/9-1.jpg",
            "image2": "imgs/9-2.jpg"
        },
        {
            "id": "10",
            "title": "chewy嚼一半",
            "city": "台中市西區",
            "address": "台中市西區美村路一段52巷10號1樓",
            "time": "12:00-18:00",
            "tel": "09-52699618",
            "evaluate": "8",
            "pricelevel": "100起",
            "minimum order": "一杯飲品",
            "longitude": "120.6590917",
            "latitude": "24.1534242",
            "link":"https://www.instagram.com/explore/locations/103240671380052/chewy/",
            "image1": "imgs/10-1.jpg",
            "image2": "imgs/10-2.jpg",
            "image3": "imgs/10-3.jpg"
        },
        {
            "id": "11",
            "title": "先生千層",
            "city": "台中市西區",
            "address": "台中市西區五權七街53號",
            "time": "12:30-19:00",
            "tel": "04-23722199",
            "evaluate": "8",
            "pricelevel": "200起",
            "minimum order": "",
            "longitude": "120.6612803",
            "latitude": "24.135069",
            "link":"https://www.instagram.com/explore/locations/103292351313595/sensei/",
            "image1": "imgs/11-1.jpg"
        },
        {
            "id": "12",
            "title": "Overture序曲 散策65",
            "city": "台中市北區",
            "address": "台中市北區北興街65號",
            "time": "12:00-19:00",
            "tel": "04-22356865",
            "evaluate": "7",
            "pricelevel": "200起",
            "minimum order": "任一甜點or飲料",
            "longitude": "120.6666511",
            "latitude": "24.1509531",
            "link":"https://www.instagram.com/explore/locations/2066238527010999/overture-65/",
            "image1": "imgs/12-1.jpg"
        }
    ]
}